iso3,iso2,name,name_fr,capital,capitalLong,capitalLat
AFG,AF,Afghanistan,Afghanistan,Kabul,69.183333,34.516666666666666
AGO,AO,Angola,Angola,Luanda,13.216667,-8.833333333333334
ALB,AL,Albania,Albanie,Tirana,19.816667,41.31666666666667
ARE,AE,United Arab Emirates,Émirats Arabes Unis,Abu Dhabi,54.366667,24.466666666666665
ARG,AR,Argentina,Argentine,Buenos Aires,-58.666667,-34.583333333333336
ARM,AM,Armenia,Arménie,Yerevan,44.500000,40.166666666666664
ATA,AQ,Antarctica,Antarctique,N/A,0.000000,0
ATF,TF,French Southern and Antarctic Lands,Terres Australes Françaises,Port-aux-Français,70.216667,-49.35
AUS,AU,Australia,Australie,Canberra,149.133333,-35.266666666666666
AUT,AT,Austria,Autriche,Vienna,16.366667,48.2
AZE,AZ,Azerbaijan,Azerbaïdjan,Baku,49.866667,40.38333333333333
BDI,BI,Burundi,Burundi,Bujumbura,29.350000,-3.3666666666666667
BEL,BE,Belgium,Belgique,Brussels,4.333333,50.833333333333336
BEN,BJ,Benin,Bénin,Porto-Novo,2.616667,6.483333333333333
BFA,BF,Burkina Faso,Burkina Faso,Ouagadougou,-1.516667,12.366666666666667
BGD,BD,Bangladesh,Bangladesh,Dhaka,90.400000,23.716666666666665
BGR,BG,Bulgaria,Bulgarie,Sofia,23.316667,42.68333333333333
BHS,BS,The Bahamas,Bahamas,Nassau,-77.350000,25.083333333333332
BIH,BA,Bosnia and Herzegovina,Bosnie-Herzégovine,Sarajevo,18.416667,43.86666666666667
BLR,BY,Belarus,Bélarus,Minsk,27.566667,53.9
BLZ,BZ,Belize,Belize,Belmopan,-88.766667,17.25
BOL,BO,Bolivia,Bolivie,La Paz,-68.150000,-16.5
BRA,BR,Brazil,Brésil,Brasilia,-47.916667,-15.783333333333333
BRN,BN,Brunei,Brunéi Darussalam,Bandar Seri Begawan,114.933333,4.883333333333333
BTN,BT,Bhutan,Bhoutan,Thimphu,89.633333,27.466666666666665
BWA,BW,Botswana,Botswana,Gaborone,25.900000,-24.633333333333333
CAF,CF,Central African Republic,République Centrafricaine,Bangui,18.583333,4.366666666666666
CAN,CA,Canada,Canada,Ottawa,-75.700000,45.416666666666664
CHE,CH,Switzerland,Suisse,Bern,7.466667,46.916666666666664
CHL,CL,Chile,Chili,Santiago,-70.666667,-33.45
CHN,CN,China,Chine,Beijing,116.383333,39.916666666666664
CIV,CI,Ivory Coast,Côte d'Ivoire,Yamoussoukro,-5.266667,6.816666666666666
CMR,CM,Cameroon,Cameroun,Yaounde,11.516667,3.8666666666666667
COD,CD,Democratic Republic of the Congo,République Démocratique du Congo,Kinshasa,15.300000,-4.316666666666666
COG,CG,Republic of the Congo,République du Congo,Brazzaville,15.283333,-4.25
COL,CO,Colombia,Colombie,Bogota,-74.083333,4.6
CRI,CR,Costa Rica,Costa Rica,San Jose,-84.083333,9.933333333333334
CUB,CU,Cuba,Cuba,Havana,-82.350000,23.116666666666667
CYP,CY,Cyprus,Chypre,Nicosia,33.366667,35.166666666666664
CZE,CZ,Czech Republic,République Tchèque,Prague,14.466667,50.083333333333336
DEU,DE,Germany,Allemagne,Berlin,13.400000,52.516666666666666
DJI,DJ,Djibouti,Djibouti,Djibouti,43.150000,11.583333333333334
DNK,DK,Denmark,Danemark,Copenhagen,12.583333,55.666666666666664
DOM,DO,Dominican Republic,République Dominicaine,Santo Domingo,-69.900000,18.466666666666665
DZA,DZ,Algeria,Algérie,Algiers,3.050000,36.75
ECU,EC,Ecuador,Équateur,Quito,-78.500000,-0.21666666666666667
EGY,EG,Egypt,Égypte,Cairo,31.250000,30.05
ERI,ER,Eritrea,Érythrée,Asmara,38.933333,15.333333333333334
ESP,ES,Spain,Espagne,Madrid,-3.683333,40.4
EST,EE,Estonia,Estonie,Tallinn,24.716667,59.43333333333333
ETH,ET,Ethiopia,Éthiopie,Addis Ababa,38.700000,9.033333333333333
FIN,FI,Finland,Finlande,Helsinki,24.933333,60.166666666666664
FJI,FJ,Fiji,Fidji,Suva,178.416667,-18.133333333333333
FLK,FK,Falkland Islands,Îles (malvinas) Falkland,Stanley,-57.850000,-51.7
FRA,FR,France,France,Paris,2.333333,48.86666666666667
GAB,GA,Gabon,Gabon,Libreville,9.450000,0.38333333333333336
GBR,GB,United Kingdom,Royaume-Uni,London,-0.083333,51.5
GEO,GE,Georgia,Géorgie,Tbilisi,44.833333,41.68333333333333
GHA,GH,Ghana,Ghana,Accra,-0.216667,5.55
GIN,GN,Guinea,Guinée,Conakry,-13.700000,9.5
GMB,GM,Gambia,Gambie,Banjul,-16.566667,13.45
GNB,GW,Guinea Bissau,Guinée-Bissau,Bissau,-15.583333,11.85
GNQ,GQ,Equatorial Guinea,Guinée Équatoriale,Malabo,8.783333,3.75
GRC,GR,Greece,Grèce,Athens,23.733333,37.983333333333334
GRL,GL,Greenland,Groenland,Nuuk,-51.750000,64.18333333333334
GTM,GT,Guatemala,Guatemala,Guatemala City,-90.516667,14.616666666666667
GUY,GY,Guyana,Guyana,Georgetown,-58.150000,6.8
HND,HN,Honduras,Honduras,Tegucigalpa,-87.216667,14.1
HRV,HR,Croatia,Croatie,Zagreb,16.000000,45.8
HTI,HT,Haiti,Haïti,Port-au-Prince,-72.333333,18.533333333333335
HUN,HU,Hungary,Hongrie,Budapest,19.083333,47.5
IDN,ID,Indonesia,Indonésie,Jakarta,106.816667,-6.166666666666667
IND,IN,India,Inde,New Delhi,77.200000,28.6
IRL,IE,Ireland,Irlande,Dublin,-6.233333,53.31666666666667
IRN,IR,Iran,République Islamique d'Iran,Tehran,51.416667,35.7
IRQ,IQ,Iraq,Iraq,Baghdad,44.400000,33.333333333333336
ISL,IS,Iceland,Islande,Reykjavik,-21.950000,64.15
ISR,IL,Israel,Israël,Jerusalem,35.233333,31.766666666666666
ITA,IT,Italy,Italie,Rome,12.483333,41.9
JAM,JM,Jamaica,Jamaïque,Kingston,-76.800000,18
JOR,JO,Jordan,Jordanie,Amman,35.933333,31.95
JPN,JP,Japan,Japon,Tokyo,139.750000,35.68333333333333
KAZ,KZ,Kazakhstan,Kazakhstan,Astana,71.416667,51.166666666666664
KEN,KE,Kenya,Kenya,Nairobi,36.816667,-1.2833333333333332
KGZ,KG,Kyrgyzstan,Kirghizistan,Bishkek,74.600000,42.86666666666667
KHM,KH,Cambodia,Cambodge,Phnom Penh,104.916667,11.55
KOR,KR,South Korea,République de Corée,Seoul,126.983333,37.55
KOS,KO,Kosovo,Kosovo,Pristina,21.166667,42.666666666666664
KWT,KW,Kuwait,Koweït,Kuwait City,47.966667,29.366666666666667
LAO,LA,Laos,République Démocratique Populaire Lao,Vientiane,102.600000,17.966666666666665
LBN,LB,Lebanon,Liban,Beirut,35.500000,33.86666666666667
LBR,LR,Liberia,Libéria,Monrovia,-10.800000,6.3
LBY,LY,Libya,Jamahiriya Arabe Libyenne,Tripoli,13.166667,32.88333333333333
LKA,LK,Sri Lanka,Sri Lanka,Colombo,79.833333,6.916666666666667
LSO,LS,Lesotho,Lesotho,Maseru,27.483333,-29.316666666666666
LTU,LT,Lithuania,Lituanie,Vilnius,25.316667,54.68333333333333
LUX,LU,Luxembourg,Luxembourg,Luxembourg,6.116667,49.6
LVA,LV,Latvia,Lettonie,Riga,24.100000,56.95
MAR,MA,Morocco,Maroc,Rabat,-6.816667,34.016666666666666
MDA,MD,Moldova,République de Moldova,Chisinau,28.850000,47
MDG,MG,Madagascar,Madagascar,Antananarivo,47.516667,-18.916666666666668
MEX,MX,Mexico,Mexique,Mexico City,-99.133333,19.433333333333334
MKD,MK,Macedonia,L'ex-République Yougoslave de Macédoine,Skopje,21.433333,42
MLI,ML,Mali,Mali,Bamako,-8.000000,12.65
MMR,MM,Myanmar,Myanmar,Rangoon,96.150000,16.8
MNE,ME,Montenegro,Montenegro,Podgorica,19.266667,42.43333333333333
MNG,MN,Mongolia,Mongolie,Ulaanbaatar,106.916667,47.916666666666664
MOZ,MZ,Mozambique,Mozambique,Maputo,32.583333,-25.95
MRT,MR,Mauritania,Mauritanie,Nouakchott,-15.966667,18.066666666666666
MWI,MW,Malawi,Malawi,Lilongwe,33.783333,-13.966666666666667
MYS,MY,Malaysia,Malaisie,Kuala Lumpur,101.700000,3.1666666666666665
NAM,NA,Namibia,Namibie,Windhoek,17.083333,-22.566666666666666
NCL,NC,New Caledonia,Nouvelle-Calédonie,Noumea,166.450000,-22.266666666666666
NER,NE,Niger,Niger,Niamey,2.116667,13.516666666666667
NGA,NG,Nigeria,Nigéria,Abuja,7.533333,9.083333333333334
NIC,NI,Nicaragua,Nicaragua,Managua,-86.250000,12.133333333333333
NLD,NL,Netherlands,Pays-Bas,Amsterdam,4.916667,52.35
NOR,NO,Norway,Norvège,Oslo,10.750000,59.916666666666664
NPL,NP,Nepal,Népal,Kathmandu,85.316667,27.716666666666665
NZL,NZ,New Zealand,Nouvelle-Zélande,Wellington,174.783333,-41.3
OMN,OM,Oman,Oman,Muscat,58.583333,23.616666666666667
PAK,PK,Pakistan,Pakistan,Islamabad,73.050000,33.68333333333333
PAN,PA,Panama,Panama,Panama City,-79.533333,8.966666666666667
PER,PE,Peru,Pérou,Lima,-77.050000,-12.05
PHL,PH,Philippines,Philippines,Manila,120.966667,14.6
PNG,PG,Papua New Guinea,Papouasie-Nouvelle-Guinée,Port Moresby,147.183333,-9.45
POL,PL,Poland,Pologne,Warsaw,21.000000,52.25
PRI,PR,Puerto Rico,Porto Rico,San Juan,-66.116667,18.466666666666665
PRK,KP,North Korea,République Populaire Démocratique de Corée,Pyongyang,125.750000,39.016666666666666
PRT,PT,Portugal,Portugal,Lisbon,-9.133333,38.71666666666667
PRY,PY,Paraguay,Paraguay,Asuncion,-57.666667,-25.266666666666666
QAT,QA,Qatar,Qatar,Doha,51.533333,25.283333333333335
ROU,RO,Romania,Roumanie,Bucharest,26.100000,44.43333333333333
RUS,RU,Russia,Fédération de Russie,Moscow,37.600000,55.75
RWA,RW,Rwanda,Rwanda,Kigali,30.050000,-1.95
SAU,SA,Saudi Arabia,Arabie Saoudite,Riyadh,46.700000,24.65
SDN,SD,Sudan,Soudan,Khartoum,32.533333,15.6
SDS,SS,South Sudan,Soudan du Sud,Juba,31.616667,4.85
SEN,SN,Senegal,Sénégal,Dakar,-17.633333,14.733333333333333
SLB,SB,Solomon Islands,Îles Salomon,Honiara,159.950000,-9.433333333333334
SLE,SL,Sierra Leone,Sierra Leone,Freetown,-13.233333,8.483333333333333
SLV,SV,El Salvador,El Salvador,San Salvador,-89.200000,13.7
SOM,SO,Somalia,Somalie,Mogadishu,45.333333,2.066666666666667
SRB,RS,Republic of Serbia,Serbie,Belgrade,20.500000,44.833333333333336
SUR,SR,Suriname,Suriname,Paramaribo,-55.166667,5.833333333333333
SVK,SK,Slovakia,Slovaquie,Bratislava,17.116667,48.15
SVN,SI,Slovenia,Slovénie,Ljubljana,14.516667,46.05
SWE,SE,Sweden,Suède,Stockholm,18.050000,59.333333333333336
SWZ,SZ,Swaziland,Swaziland,Mbabane,31.133333,-26.316666666666666
SYR,SY,Syria,République Arabe Syrienne,Damascus,36.300000,33.5
TCD,TD,Chad,Tchad,N'Djamena,15.033333,12.1
TGO,TG,Togo,Togo,Lome,1.216667,6.116666666666666
THA,TH,Thailand,Thaïlande,Bangkok,100.516667,13.75
TJK,TJ,Tajikistan,Tadjikistan,Dushanbe,68.766667,38.55
TKM,TM,Turkmenistan,Turkménistan,Ashgabat,58.383333,37.95
TLS,TL,East Timor,Timor-Leste,Dili,125.600000,-8.583333333333334
TTO,TT,Trinidad and Tobago,Trinité-et-Tobago,Port of Spain,-61.516667,10.65
TUN,TN,Tunisia,Tunisie,Tunis,10.183333,36.8
TUR,TR,Turkey,Turquie,Ankara,32.866667,39.93333333333333
TWN,TW,Taiwan,Taïwan,Taipei,121.516667,25.033333333333335
TZA,TZ,United Republic of Tanzania,République-Unie de Tanzanie,Dar es Salaam,39.283333,-6.8
UGA,UG,Uganda,Ouganda,Kampala,32.550000,0.31666666666666665
UKR,UA,Ukraine,Ukraine,Kyiv,30.516667,50.43333333333333
URY,UY,Uruguay,Uruguay,Montevideo,-56.166667,-34.85
USA,US,United States of America,États-Unis,Washington D.C.,-77.000000,38.883333
UZB,UZ,Uzbekistan,Ouzbékistan,Tashkent,69.250000,41.31666666666667
VEN,VE,Venezuela,Venezuela,Caracas,-66.866667,10.483333333333333
VNM,VN,Vietnam,Viet Nam,Hanoi,105.850000,21.033333333333335
VUT,VU,Vanuatu,Vanuatu,Port-Vila,168.316667,-17.733333333333334
PSE,PS,West Bank,Territoire Palestinien Occupé,Jerusalem,35.233333,31.766666666666666
YEM,YE,Yemen,Yémen,Sanaa,44.200000,15.35
ZAF,ZA,South Africa,Afrique du Sud,Pretoria,28.216667,-25.7
ZMB,ZM,Zambia,Zambie,Lusaka,28.283333,-15.416666666666666
ZWE,ZW,Zimbabwe,Zimbabwe,Harare,31.033333,-17.816666666666666
